{
"type": "FeatureCollection",
"name": "POIs_Text",
"crs": { "type": "name", "properties": { "name": "urn:ogc:def:crs:OGC:1.3:CRS84" } },
"features": [
{ "type": "Feature", "properties": { "id": 1, "name": "Schloss", "Info": "The castle is a building complex in Münster. The building is constructed in a U-shape. In front of the castle there is a forecourt and in the back there is the Münster Botanical Garden. The castle is used as an administrative building by the University" }, "geometry": { "type": "Point", "coordinates": [ 7.613330487890119, 51.963585706298346 ] } },
{ "type": "Feature", "properties": { "id": 2, "name": "Ueberwasserkirche", "Info": "The Überwasserkirche takes its name from its location: when viewed from St. Paul's Cathedral, you have to cross “water” (the Aa river) to reach the church. The Überwasserkirche is one of the oldest churches, as a predecessor building already existe" }, "geometry": { "type": "Point", "coordinates": [ 7.622341027201696, 51.964104409779893 ] } },
{ "type": "Feature", "properties": { "id": 3, "name": "Domplatz", "Info": "Domplatz is the open space in front of St. Paul's Cathedral. Until 1916, the Send fair was held there three times a year, after which it moved to Schlossplatz. Today, Domplatz hosts a weekly market on Wednesdays and Fridays, where fresh food and flowers," }, "geometry": { "type": "Point", "coordinates": [ 7.624655363885051, 51.962476898279519 ] } },
{ "type": "Feature", "properties": { "id": 4, "name": "Dom", "Info": "St. Paul's Cathedral is the mother church of the Diocese of Münster and was built in the 13th century. The cathedral has a nave and a transept. There are also numerous works of art in the building." }, "geometry": { "type": "Point", "coordinates": [ 7.625413226095902, 51.962715499325824 ] } },
{ "type": "Feature", "properties": { "id": 5, "name": "alte Stadtmauergrenze", "Info": null }, "geometry": { "type": "Point", "coordinates": [ 7.626054405073822, 51.963652041345156 ] } },
{ "type": "Feature", "properties": { "id": 6, "name": "Kiepenkerl", "Info": "The Kiepenkerl was a small trader who transported everyday goods between the countryside and the city using a “Kiepe” (a basket for the back).\nToday, the Kiepenkerl is a traditional figure in Münster and the surrounding area.\n" }, "geometry": { "type": "Point", "coordinates": [ 7.626196594027156, 51.964156922174418 ] } },
{ "type": "Feature", "properties": { "id": 7, "name": "altes Haus", "Info": "The Roggenmarkt is located on Prinzipalmarkt and is, together with the Old Fish Market, is one of the oldest markets in Münster. It got its name from the trade in rye. There are many historic merchant houses on Roggenmarkt, most of which were completely" }, "geometry": { "type": "Point", "coordinates": [ 7.628242486093781, 51.963037955000701 ] } },
{ "type": "Feature", "properties": { "id": 8, "name": "Drubbel", "Info": null }, "geometry": { "type": "Point", "coordinates": [ 7.628402478224412, 51.963245082193552 ] } },
{ "type": "Feature", "properties": { "id": 9, "name": "Lambertikirche", "Info": "St. Lambert's Church was built in its present form in the 14th and 15th centuries in the late Gothic style. Münster was influenced for several years by the Anabaptists, whose three leaders were executed after regaining power by being hung in cages and l" }, "geometry": { "type": "Point", "coordinates": [ 7.628795295296862, 51.962777944173631 ] } },
{ "type": "Feature", "properties": { "id": 10, "name": "Historisches Rathaus", "Info": "The historic town hall is located on Prinzipalmarkt and gained particular fame through the negotiations for the Peace of Westphalia in Münster and Osnabrück, which ended the Thirty Years' War in Europe in 1648. The building was also destroyed during Wo" }, "geometry": { "type": "Point", "coordinates": [ 7.62790886702629, 51.961667528746581 ] } },
{ "type": "Feature", "properties": { "id": 11, "name": "Salzstraße", "Info": "Salzstraße is the oldest trade route in Münster and is now a pedestrian zone. A special feature are the brass-edged stones from all Hanseatic cities, which were embedded in the ground in 1993. How many can you spot?" }, "geometry": { "type": "Point", "coordinates": [ 7.629536883408687, 51.962358843947818 ] } },
{ "type": "Feature", "properties": { "id": 12, "name": "Erbdrostenhof", "Info": "The Erbdrostenhof was built between 1753 and 1757 and designed by Johann Conrad Schlaun, the same architect who designed the castle. It is a Baroque aristocratic palace and was intended for the former highest-ranking officials of the city of Münster. To" }, "geometry": { "type": "Point", "coordinates": [ 7.632229682020091, 51.961194178928935 ] } },
{ "type": "Feature", "properties": { "id": 13, "name": "Stadtmuseum", "Info": "The City Museum was founded in 1979 and opened in 1982 with an exhibition on the Anabaptists. It moved to its current building in 1989. It showcases the history of the city of Münster and also hosts temporary exhibitions." }, "geometry": { "type": "Point", "coordinates": [ 7.633033516854109, 51.960596846760026 ] } },
{ "type": "Feature", "properties": { "id": 14, "name": "Synagoge", "Info": "The current new synagogue was built in 1961. The old synagogue used to stand on the same site, but it was destroyed during Kristallnacht in 1938." }, "geometry": { "type": "Point", "coordinates": [ 7.631820714198313, 51.959542216820481 ] } },
{ "type": "Feature", "properties": { "id": 15, "name": "Botanischer Garten", "Info": "The botanical was founded in 1803 for research and teaching. Furthermore, it’s important for diversity and preserving of species. People in Münster are using the Botanical garden for relaxation and silence. Sometimes there are also guided tours." }, "geometry": { "type": "Point", "coordinates": [ 7.611577191128909, 51.964047151082788 ] } },
{ "type": "Feature", "properties": { "id": 16, "name": "Cafe fam", "Info": "Café fam is a bar and café since 2018. It’s a place to have breakfast, lunch or a cozy coffee with home-made bread and cake." }, "geometry": { "type": "Point", "coordinates": [ 7.620125947583937, 51.96341048039433 ] } },
{ "type": "Feature", "properties": { "id": 17, "name": "La tienda", "Info": "La tienda is an association founded in 1993 which lives by the honorary engagement from people. The important thing for this association are: selling fair-trade products, education work and public work. The profits are invested in education work." }, "geometry": { "type": "Point", "coordinates": [ 7.621055548871394, 51.96365633769048 ] } },
{ "type": "Feature", "properties": { "id": 18, "name": "Offenes Bücherregal", "Info": "It’s a public book shelf for everyone. You can take one book but you have to put one other book in there.\nIt’s a nice possibility to read and learn something new and to exchange books.\n" }, "geometry": { "type": "Point", "coordinates": [ 7.621558248644532, 51.965302841849969 ] } },
{ "type": "Feature", "properties": { "id": 19, "name": "Gruen&Form", "Info": "The store was founded in 1994 and has products which are mainly from Italy, France and Portugal but also from Tunisia." }, "geometry": { "type": "Point", "coordinates": [ 7.622369862076273, 51.965186086121697 ] } },
{ "type": "Feature", "properties": { "id": 20, "name": "sFachl", "Info": "A cute store who sells products from differents artist and seller. Unique about this store is that every artist has a corner for his products.\nAvailable products are accessoires, food, alcohol, household items and decoration.\n" }, "geometry": { "type": "Point", "coordinates": [ 7.623912642674458, 51.964333649942191 ] } },
{ "type": "Feature", "properties": { "id": 21, "name": "gruene wiese", "Info": "It’s mainly a retail store but for clothes fair-trade and made of good fabric." }, "geometry": { "type": "Point", "coordinates": [ 7.624107858944836, 51.964306332944233 ] } },
{ "type": "Feature", "properties": { "id": 22, "name": "Teehaus Tropic", "Info": "A little shop where mainly tea and tea utensils are sold. Additionally, you can find japanese kitchen products there." }, "geometry": { "type": "Point", "coordinates": [ 7.624573910974942, 51.964227135585872 ] } },
{ "type": "Feature", "properties": { "id": 23, "name": "Kauf Dich Gluecklich", "Info": "A shop with clothes, decoration and accessoires from which some are vegan, hand-made or fair produced." }, "geometry": { "type": "Point", "coordinates": [ 7.625312586459564, 51.964146946741053 ] } },
{ "type": "Feature", "properties": { "id": 24, "name": "Homebeis", "Info": "A shop with local products: drinks, alcohol, decoration, Münster souvenirs, papeterie and snacks. Friendly and courteous advice on products and gifts." }, "geometry": { "type": "Point", "coordinates": [ 7.624021870825739, 51.960346183442809 ] } },
{ "type": "Feature", "properties": { "id": 25, "name": "SuperBioMarkt", "Info": "A bio supermarket in the basement of the Arkaden. Useful and nice for a little snack while being in the city." }, "geometry": { "type": "Point", "coordinates": [ 7.626358030369061, 51.96062290187281 ] } },
{ "type": "Feature", "properties": { "id": 26, "name": "AFAUN", "Info": "A similar retail store for clothes to „gruene wiese“ with clothes made of good fabric and high quality." }, "geometry": { "type": "Point", "coordinates": [ 7.62704522024391, 51.957370911773708 ] } },
{ "type": "Feature", "properties": { "id": 27, "name": "Krawummel", "Info": "A vegan restaurant with nice and tasty food as well as friendly staff." }, "geometry": { "type": "Point", "coordinates": [ 7.626767770013481, 51.957124138668078 ] } },
{ "type": "Feature", "properties": { "id": 28, "name": "Aaseekugeln", "Info": "The „giant pool balls“ were a sculpture project by Claes Oldenburg from 1977. Originally, they are white but artists or random people always paint the balls. It’s a recurring thing that they are painted and they are painted white by a painting comp" }, "geometry": { "type": "Point", "coordinates": [ 7.617870770614029, 51.956870313485211 ] } },
{ "type": "Feature", "properties": { "id": 29, "name": "Graffiti e-motion", "Info": "Münster is and will always be a cycling city! The e-motion store's façade features a bicycle motif." }, "geometry": { "type": "Point", "coordinates": [ 7.619491137165961, 51.952982554480172 ] } },
{ "type": "Feature", "properties": { "id": 30, "name": "100 Arme der Guan-yin", "Info": "For his sculpture in Münster, Huang Yong Ping drew inspiration from both Duchamp's iconic work, the Bottle Rack (1914), and the Christ figure in St. Ludgeri Church, which lost its arms in a World War II bombing. Instead of bottles, the six-meter-high Bo" }, "geometry": { "type": "Point", "coordinates": [ 7.626754183533125, 51.957314065946562 ] } },
{ "type": "Feature", "properties": { "id": 31, "name": "Glockenspiel", "Info": "Six carillons are scattered throughout the city center, attracting the attention of pedestrians throughout the day. They can be heard at various times while wandering through the city. There are musical elements daily at 12pm, 4pm, 5pm and 6pm." }, "geometry": { "type": "Point", "coordinates": [ 7.625518350129161, 51.960628519944237 ] } },
{ "type": "Feature", "properties": { "id": 32, "name": "Otto Freundlich", "Info": "Near the synagogue stands a sculpture by the artist, Jew and communist Otto Freundlich, who was born in 1878. He was murdered in 1943 in a Nazi concentration camp." }, "geometry": { "type": "Point", "coordinates": [ 7.631720935950641, 51.960564628109722 ] } },
{ "type": "Feature", "properties": { "id": 33, "name": "Graffiti Baeckerei Schrunz", "Info": "Cosy with coffee and cake. The Schrunz bakery has had a wall design added to its seating area." }, "geometry": { "type": "Point", "coordinates": [ 7.630898596350148, 51.961772829310981 ] } },
{ "type": "Feature", "properties": { "id": 34, "name": "Graffiti Affenkaesten", "Info": "A series of five electrical boxes that have been transformed into monkeys." }, "geometry": { "type": "Point", "coordinates": [ 7.635548032943558, 51.961857428612802 ] } },
{ "type": "Feature", "properties": { "id": 36, "name": "Graffiti Kulti Kebab", "Info": "The interior design at Kulti Kebab is based on the theme of Berlin and graffiti." }, "geometry": { "type": "Point", "coordinates": [ 7.637845578279552, 51.958474213309913 ] } },
{ "type": "Feature", "properties": { "id": 35, "name": "Graffiti Hafenwelle", "Info": "The wave is located directly on the harbour promenade. The façade belongs to the Powersports fitness studio." }, "geometry": { "type": "Point", "coordinates": [ 7.639720512568682, 51.952058710442564 ] } },
{ "type": "Feature", "properties": { "id": 37, "name": "Graffiti Mexikanische Wrestler", "Info": "Masked Mexican wrestlers battle with their eyes on this wall." }, "geometry": { "type": "Point", "coordinates": [ 7.633280520879928, 51.953342942145468 ] } },
{ "type": "Feature", "properties": { "id": 38, "name": "Graffiti VW Bulli", "Info": "The illusion painting provides a glimpse into the garage, where an old VW Bulli is parked." }, "geometry": { "type": "Point", "coordinates": [ 7.621881463861229, 51.965636034590688 ] } },
{ "type": "Feature", "properties": { "id": 39, "name": "Graffiti Totenkopfaeffchen", "Info": "Three cute little monkeys who live on the outskirts of Münster." }, "geometry": { "type": "Point", "coordinates": [ 7.595429301685968, 51.980198487579926 ] } },
{ "type": "Feature", "properties": { "id": 40, "name": "Sanctuarium", "Info": "A sanctuary is a sacred, protected place, like a church or a temple. The Münster sanctuary consists of a circular brick wall with no entrance to its interior. Especially in summer, this is a wonderful place to spend time and chill out." }, "geometry": { "type": "Point", "coordinates": [ 7.607465493125574, 51.966195572529855 ] } },
{ "type": "Feature", "properties": { "id": 41, "name": "Diözesanbibliothek", "Info": "The new building of the diocesan library in the centre of Münster, designed by architect Max Dudler and opened in December 2005, is an approximately 70-metre-long box-shaped structure reminiscent of an oversized bookshelf.\n\nThe library is separated from" }, "geometry": { "type": "Point", "coordinates": [ 7.622084545988653, 51.96505357901637 ] } },
{ "type": "Feature", "properties": { "id": 42, "name": "LWL-Museum", "Info": "The museum displays works of art from the early Middle Ages to the present day. It has a collection of more than 300,000 exhibits. The historical holdings include works of art from the region and neighboring areas. Visitors to the museum can also admire" }, "geometry": { "type": "Point", "coordinates": [ 7.623810744071781, 51.960888933307075 ] } },
{ "type": "Feature", "properties": { "id": 43, "name": "Aegidiimarkt", "Info": "In the post-war period, this site was used as a parking lot for a long time. It was only after an architectural competition that a modern business, office, and residential center was built in 1976. A protective bunker was also built, which can shelter 3," }, "geometry": { "type": "Point", "coordinates": [ 7.623787861578551, 51.960557577970675 ] } },
{ "type": "Feature", "properties": { "id": 44, "name": "Muenster Arkaden", "Info": "The six connected buildings together make a group that creates a public connection between the busy Rothenburg and the pedestrian zone in Ludgeristraße by means of a big three- to four-story passageway. Here, you can shop in a wide variety of stores or" }, "geometry": { "type": "Point", "coordinates": [ 7.62671396040049, 51.960806094702598 ] } },
{ "type": "Feature", "properties": { "id": 45, "name": "Stubengasse", "Info": "Stubengasse has been known in Münster since the Middle Ages. The name comes from the bathhouses that stood here in the Middle Ages and were still located here after 1610. Today, the square is a venue for street performers, a meeting place for demonstrat" }, "geometry": { "type": "Point", "coordinates": [ 7.629419815225078, 51.960799044601529 ] } },
{ "type": "Feature", "properties": { "id": 46, "name": "Clemenskirche", "Info": "Clemenskirche is a Baroque monastery and hospital church built between 1745 and 1753 for the Brothers of Mercy according to plans by Johann Conrad Schlaun. The monastery was dissolved in 1811." }, "geometry": { "type": "Point", "coordinates": [ 7.631236113125303, 51.960791994499353 ] } },
{ "type": "Feature", "properties": { "id": 47, "name": "Stadtbuecherei", "Info": "The city library building was constructed between 1991 and 1993. Particularly impressive is the alleyway that runs through the middle of the building, offering exciting insights. A sculpture at the end of the passageway reflects the openness of the archi" }, "geometry": { "type": "Point", "coordinates": [ 7.630483851160333, 51.962908737865902 ] } },
{ "type": "Feature", "properties": { "id": 48, "name": "Stadttheater", "Info": "Theater Münster opened on February 4, 1956, as the first major new theater building in post-war Germany and is internationally regarded as an important example of modern architecture. Its roots date back to 1774, when Franz Freiherr von Fürstenberg had" }, "geometry": { "type": "Point", "coordinates": [ 7.628707597623258, 51.964697581262151 ] } },
{ "type": "Feature", "properties": { "id": 49, "name": "Zwinger", "Info": "The Zwinger in Münster was built in the early 16th century as a defensive tower and gun tower for the city's defense. In its approximately 500-year history, it has served many functions, including as a defensive tower, mill, powder magazine, prison, stu" }, "geometry": { "type": "Point", "coordinates": [ 7.631785292962855, 51.967718185285158 ] } },
{ "type": "Feature", "properties": { "id": 50, "name": "Schlosstheater", "Info": null }, "geometry": { "type": "Point", "coordinates": [ 7.613713843933521, 51.97126193664765 ] } },
{ "type": "Feature", "properties": { "id": 51, "name": "Heilig Kreuz Kirche", "Info": null }, "geometry": { "type": "Point", "coordinates": [ 7.623378837012046, 51.970160601865985 ] } },
{ "type": "Feature", "properties": { "id": 52, "name": "Raesfeldstraße (1)", "Info": null }, "geometry": { "type": "Point", "coordinates": [ 7.62361624287932, 51.97111391882747 ] } },
{ "type": "Feature", "properties": { "id": 53, "name": "Raesfeldstraße (80)", "Info": null }, "geometry": { "type": "Point", "coordinates": [ 7.615521560898786, 51.969601994518769 ] } },
{ "type": "Feature", "properties": { "id": 54, "name": "Schulstraße", "Info": null }, "geometry": { "type": "Point", "coordinates": [ 7.615492957782245, 51.968259193796946 ] } },
{ "type": "Feature", "properties": { "id": 55, "name": "Studtstraße", "Info": null }, "geometry": { "type": "Point", "coordinates": [ 7.617237747891125, 51.968627498786731 ] } },
{ "type": "Feature", "properties": { "id": 56, "name": "Lazarettstraße", "Info": "It was named in 1875 after the “Standortlazarett” (military hospital), which was already located at Neutor at that time. The street runs north around what was then the hospital complex. Today, the buildings belong to the German-Netherlands Corps." }, "geometry": { "type": "Point", "coordinates": [ 7.616451162186303, 51.968165795399763 ] } },
{ "type": "Feature", "properties": { "id": 57, "name": "Kleimannstraße", "Info": "The Kleimannstraße runs parallel to the promenade along a green meadow that often serves as a dog playground. The street was named in 1900 after city councilor Adolf Kleimann (*1825 - †1911), who, among other things, built the Kreuzschanze as part of" }, "geometry": { "type": "Point", "coordinates": [ 7.620738769355496, 51.967469706874525 ] } },
{ "type": "Feature", "properties": { "id": 58, "name": "Roestbar", "Info": "The Roestbar in the Kreuzviertel is a popular café. In summer, you can sit outside, watch the hustle and bustle of the city, and enjoy a delicious coffee with a slice of cake." }, "geometry": { "type": "Point", "coordinates": [ 7.622127450663464, 51.968570226678452 ] } },
{ "type": "Feature", "properties": { "id": 59, "name": "Buddenturm", "Info": "The Buddenturm is the oldest surviving part of the former city fortifications. It was built in the 12th century and used as a defensive tower. In 1533, it served as a prison and from 1598 onwards it was used as a powder tower. The name Buddenturm comes f" }, "geometry": { "type": "Point", "coordinates": [ 7.623177185040446, 51.966370041198786 ] } },
{ "type": "Feature", "properties": { "id": 60, "name": "Antiquariat Wilsberg", "Info": "The „Antiquariat Solder“ is a normal antique store in Münster. But a few times a year there are camera people and they are filming new episode of the series in german TV." }, "geometry": { "type": "Point", "coordinates": [ 7.621701264227039, 51.963989102071075 ] } },
{ "type": "Feature", "properties": { "id": 61, "name": "Rewe Kreuztor", "Info": "The 7:1 win of Germany vs. Brazil in the half final game of the world cup 2014 was beyond all beliefs. But even more unbelievable is guy in Münster who predicted this exact result, in front of this supermarket." }, "geometry": { "type": "Point", "coordinates": [ 7.623024158366964, 51.967986928114662 ] } },
{ "type": "Feature", "properties": { "id": 62, "name": "Ludgerikreisel", "Info": "In a local TV program was a short video about bicycle controls in the city of Münster, especially the forbidden riding of a bike on a zebra cross. Especially a guy who discussed his behaviour and even comes back with his laptop and some researches, to p" }, "geometry": { "type": "Point", "coordinates": [ 7.627323206782771, 51.955735904469556 ] } },
{ "type": "Feature", "properties": { "id": 63, "name": "Tatortszene (2)", "Info": "For the 2019 episode “Väterchen Frost” (Fatherly Frost), the Tatort actors were allowed to film at the Christmas market at Lambertikirche." }, "geometry": { "type": "Point", "coordinates": [ 7.628680685032407, 51.962602207058524 ] } },
{ "type": "Feature", "properties": { "id": 64, "name": "Tartortszene (3)", "Info": "A recurring scene in the „Tatort Münster“. When they are producing a new „Tatort“ this place is often closed for minutes or hours due to filming scenes." }, "geometry": { "type": "Point", "coordinates": [ 7.628166712322541, 51.9621894768175 ] } },
{ "type": "Feature", "properties": { "id": 65, "name": "Bares fuer Rares", "Info": "In the popular german TV show „Bares für Rares“ there are dealers who are buying antiques from common german people. One of them, Daniel Meyer, has an antique store of his own in near the „Altstadt“ of Münster." }, "geometry": { "type": "Point", "coordinates": [ 7.631829182374458, 51.964883137149101 ] } },
{ "type": "Feature", "properties": { "id": 66, "name": "Matcha-See", "Info": "In 2024, a pond near the promenade got popular for being green like a Matcha-drink. It was called „Matcha lake“ and even got listed as a rightful site of Münster for some time." }, "geometry": { "type": "Point", "coordinates": [ 7.629277556566446, 51.956843817147032 ] } },
{ "type": "Feature", "properties": { "id": 67, "name": "Tretboot Schwan", "Info": "In the time around 2006 a black swan appears at the Aasee in Münster. The story got popular as the swan was always by the side of a pedal boat which was formed as a big white swan. The love story lasted for some years but then the black swan, Petra, dis" }, "geometry": { "type": "Point", "coordinates": [ 7.613798688117047, 51.957636677302823 ] } },
{ "type": "Feature", "properties": { "id": 68, "name": "Tuckesburg", "Info": "The Tuckesburg is a residential building built in the 19th century. A building beautiful, interesting and eerie at the same time." }, "geometry": { "type": "Point", "coordinates": [ 7.610869043670807, 51.961366814425404 ] } },
{ "type": "Feature", "properties": { "id": 69, "name": "Picassoplatz", "Info": "At first glance, this place seems like a normal space between buildings in the city. But at second glance, the square is paved in red and grey which form the portrait of Pablo Picasso." }, "geometry": { "type": "Point", "coordinates": [ 7.626004710988133, 51.960097928330725 ] } },
{ "type": "Feature", "properties": { "id": 70, "name": "Himmelsleiter", "Info": "The „Himmelsleiter“ was installed in 2022 until spring 2024, at again in fall 2024. It’s not a hidden gem at first glance because it’s really obvious and easy to spot. The special thing ist he ladder continues to shine inside if you take a closer" }, "geometry": { "type": "Point", "coordinates": [ 7.628705554679657, 51.962891575685241 ] } },
{ "type": "Feature", "properties": { "id": 71, "name": "Dominikanerkirche", "Info": "The „Foucaultsche Pendel“ is an artwork by Gerhard Richter installed in 2018. It’s brings science and comtemporary art together and creates a special feeling inside the church." }, "geometry": { "type": "Point", "coordinates": [ 7.630567047776442, 51.962156785150825 ] } },
{ "type": "Feature", "properties": { "id": 72, "name": "Fluss Aa", "Info": "The Aa, the little river floating through Münster, is sometimes hidden. If you start at Münzstraße (near Café Extrablatt, Münzstraße/ Tibusstraße) you can walk until the Aegidiimarkt and enjoy the silence and green area in the middle of the city." }, "geometry": { "type": "Point", "coordinates": [ 7.625953728211266, 51.965100471984265 ] } },
{ "type": "Feature", "properties": { "id": 73, "name": "Cafe 1648", "Info": "Although located in the city center of Münster, the Café 1648 is easy to miss because it’s on the 11th floor of the Stadthaus. The view over the city is unique and a real hidden gem." }, "geometry": { "type": "Point", "coordinates": [ 7.629886862924112, 51.961430411032062 ] } },
{ "type": "Feature", "properties": { "id": 74, "name": "Tatortszene (1)", "Info": "The promenade was first used as a filming location for the TV crime series Tatort in 2007, in the episode “Satisfaktion.” In it, the character Frank Thiel rides his bicycle along the promenade." }, "geometry": { "type": "Point", "coordinates": [ 7.623250397555021, 51.966771054689232 ] } },
{ "type": "Feature", "properties": { "id": 75, "name": "Prinzipalmarkt", "Info": "Prinzipalmarkt is an old bourgeois market street that has existed since around the 12th century. It has been called Prinzipalmarkt since 1611. Most of the houses were destroyed during World War II and then rebuilt in their original style. Today, Prinzipa" }, "geometry": { "type": "Point", "coordinates": [ 7.628400680451517, 51.962585327730039 ] } },
{ "type": "Feature", "properties": { "id": 76, "name": "Theater Klo", "Info": null }, "geometry": { "type": "Point", "coordinates": [ 7.628362367901091, 51.964669234839519 ] } },
{ "type": "Feature", "properties": { "id": 77, "name": "Theater alte Mauer", "Info": "The Romberger Hof was a classicist aristocratic palace. It was a prestigious building in the city and housed, among other things, a theater and a music academy. The ruins stand together with a large old tree that survived the bombing war in the courtyard" }, "geometry": { "type": "Point", "coordinates": [ 7.628951313382292, 51.965148041453105 ] } },
{ "type": "Feature", "properties": { "id": 78, "name": "Graffiti Kreuzkirche", "Info": "The main attraction is the Heilige Kreuz Kirche in the center of the Kreuzviertel district. Not far from it are electrical boxes depicting an illustration of this church." }, "geometry": { "type": "Point", "coordinates": [ 7.622267522264353, 51.970050465839769 ] } },
{ "type": "Feature", "properties": { "id": 79, "name": "Graffiti Eichhörnchen", "Info": "In the Kreuzviertel district, not far from the promenade, there is a small playground with a small bouldering wall guarded by a cute squirrel." }, "geometry": { "type": "Point", "coordinates": [ 7.62197399932182, 51.968164879514262 ] } },
{ "type": "Feature", "properties": { "id": 80, "name": "Platz des Westfaelischen Friedens", "Info": null }, "geometry": { "type": "Point", "coordinates": [ 7.628631007932569, 51.961485397056691 ] } },
{ "type": "Feature", "properties": { "id": 81, "name": "Schlossplatz", "Info": null }, "geometry": { "type": "Point", "coordinates": [ 7.61688251241016, 51.963477603896429 ] } },
{ "type": "Feature", "properties": { "id": 82, "name": "Kardinal von Galen", "Info": null }, "geometry": { "type": "Point", "coordinates": [ 7.626712066776943, 51.963056967875694 ] } },
{ "type": "Feature", "properties": { "id": 83, "name": "Truemmerlok", "Info": null }, "geometry": { "type": "Point", "coordinates": [ 7.617065743344782, 51.966879965500262 ] } },
{ "type": "Feature", "properties": { "id": 84, "name": "St. Ludgeri", "Info": null }, "geometry": { "type": "Point", "coordinates": [ 7.626501076228675, 51.958039993407709 ] } },
{ "type": "Feature", "properties": { "id": 85, "name": "St. Servatii", "Info": null }, "geometry": { "type": "Point", "coordinates": [ 7.632135704474701, 51.960245642931177 ] } },
{ "type": "Feature", "properties": { "id": 86, "name": "St. Petri", "Info": null }, "geometry": { "type": "Point", "coordinates": [ 7.621813824597066, 51.961812559652842 ] } },
{ "type": "Feature", "properties": { "id": 87, "name": "St. Martini", "Info": null }, "geometry": { "type": "Point", "coordinates": [ 7.629744636840759, 51.965448998586439 ] } },
{ "type": "Feature", "properties": { "id": 88, "name": "Bibelmuseum", "Info": null }, "geometry": { "type": "Point", "coordinates": [ 7.623612234441391, 51.961211704835648 ] } },
{ "type": "Feature", "properties": { "id": 89, "name": "Geomuseum", "Info": null }, "geometry": { "type": "Point", "coordinates": [ 7.623305687308838, 51.961497741516517 ] } },
{ "type": "Feature", "properties": { "id": 90, "name": "Archaeologisches Museum", "Info": null }, "geometry": { "type": "Point", "coordinates": [ 7.62386915013344, 51.962003248420196 ] } },
{ "type": "Feature", "properties": { "id": 91, "name": "Picassomuseum", "Info": null }, "geometry": { "type": "Point", "coordinates": [ 7.626258758019124, 51.96021505962586 ] } },
{ "type": "Feature", "properties": { "id": 92, "name": "Stadthausturm", "Info": null }, "geometry": { "type": "Point", "coordinates": [ 7.627762298716895, 51.961132549708459 ] } },
{ "type": "Feature", "properties": { "id": 93, "name": "St. Aegidii-Kirche", "Info": null }, "geometry": { "type": "Point", "coordinates": [ 7.624709965125588, 51.959388402970177 ] } },
{ "type": "Feature", "properties": { "id": 94, "name": "Geo 1", "Info": null }, "geometry": { "type": "Point", "coordinates": [ 7.595804030273816, 51.969183169507907 ] } },
{ "type": "Feature", "properties": { "id": 95, "name": "Kapuzinerkloster", "Info": null }, "geometry": { "type": "Point", "coordinates": [ 7.607333121954414, 51.971064526962643 ] } },
{ "type": "Feature", "properties": { "id": 96, "name": "Buecherverbrennung", "Info": null }, "geometry": { "type": "Point", "coordinates": [ 7.62425452367149, 51.962214624171843 ] } }
]
}
